Rede,Nome Fantasia,Logradouro,Bairro,Cep,Ddd,Telefone,Uf,Municipio,DtAbertutra,codUnidade,Cnpj,Categoria,Classsificação,Fontes,Cnes,Latitude,Longitude,Email
Mmartan,Outlet Premium Salvador,"Estrada Do Coco, KM 12,5, Lojas 1030/1031",Vila Abrantes,42840971,,(19) 995241204,BA,Camacari,,,"[<Selector xpath=""descendant-or-self::div[@class and contains(concat(' ', normalize-space(@class), ' '), ' x21smb-0 ') and (@class and contains(concat(' ', normalize-space(@class), ' '), ' eaLBM '))]/p/span/text()"" data='Ammo Varejo Ltda CNPJ: 03.494.776/001...'>]",Artigos Diversos,,,,-12.826755,-38.266167,salvadoroutlet@mmartan.com.br
Mmartan,Lauro de Freitas,"Avenida Santos Dumont, 5046, Lote VAR Tropicais Q 0001",Pitangueiras,42701260,,(19) 991327226,BA,Lauro de Freitas,,,"[<Selector xpath=""descendant-or-self::div[@class and contains(concat(' ', normalize-space(@class), ' '), ' x21smb-0 ') and (@class and contains(concat(' ', normalize-space(@class), ' '), ' eaLBM '))]/p/span/text()"" data='Ammo Varejo Ltda CNPJ: 03.494.776/001...'>]",Artigos Diversos,,,,-12.881824,-38.314254,lfreitas@mmartan.com.br
Mmartan,Shopping da Bahia,"Avenida Tancredo Neves 148, 148, Lojas 17/18/19, 3° Piso",Caminho das Árvores,41820908,,(19) 991322361,BA,Salvador,,,"[<Selector xpath=""descendant-or-self::div[@class and contains(concat(' ', normalize-space(@class), ' '), ' x21smb-0 ') and (@class and contains(concat(' ', normalize-space(@class), ' '), ' eaLBM '))]/p/span/text()"" data='Ammo Varejo Ltda CNPJ: 03.494.776/001...'>]",Artigos Diversos,,,,-12.981181,-38.465277,shoppingbahia@mmartan.com.br
Mmartan,Outlet Premium Fortaleza,"Rodovia BR-020, KM 12, Lojas 11/12",Nova Metrópole (Jurema),61658007,,(19) 991295911,CE,Caucaia,,,"[<Selector xpath=""descendant-or-self::div[@class and contains(concat(' ', normalize-space(@class), ' '), ' x21smb-0 ') and (@class and contains(concat(' ', normalize-space(@class), ' '), ' eaLBM '))]/p/span/text()"" data='Ammo Varejo Ltda CNPJ: 03.494.776/001...'>]",Artigos Diversos,,,,-3.771647,-38.672674,premiumfortaleza@mmartan.com.br
Mmartan,I Fashion Outlet Novo Hamburgo,"Rua Rincão, 505, Loja 142",Rincão,93310460,,(19) 991257434,RS,Novo Hamburgo,,,"[<Selector xpath=""descendant-or-self::div[@class and contains(concat(' ', normalize-space(@class), ' '), ' x21smb-0 ') and (@class and contains(concat(' ', normalize-space(@class), ' '), ' eaLBM '))]/p/span/text()"" data='Ammo Varejo Ltda CNPJ: 03.494.776/001...'>]",Artigos Diversos,,,,-29.669901,-51.141541,outletifashion@mmartan.com.br
Mmartan,Shopping Mueller Joinville,"Rua Visconde de Taunay 235, 235, Lojas 1/2/3, 1º Piso",Centro,89201908,,(19) 991333412,SC,Joinville,,,"[<Selector xpath=""descendant-or-self::div[@class and contains(concat(' ', normalize-space(@class), ' '), ' x21smb-0 ') and (@class and contains(concat(' ', normalize-space(@class), ' '), ' eaLBM '))]/p/span/text()"" data='Ammo Varejo Ltda CNPJ: 03.494.776/001...'>]",Artigos Diversos,,,,-26.30327,-48.849376,joinville@mmartan.com.br
Mmartan,Cataratas JL Shopping,"Avenida Costa e Silva, 185, Loja 214 A",Cr 1,85863712,,(45) 30281108,PR,Foz do Iguaçu,,,"[<Selector xpath=""descendant-or-self::div[@class and contains(concat(' ', normalize-space(@class), ' '), ' x21smb-0 ') and (@class and contains(concat(' ', normalize-space(@class), ' '), ' eaLBM '))]/p/span/text()"" data='Ammo Varejo Ltda CNPJ: 03.494.776/001...'>]",Artigos Diversos,,,,-25.533056,-54.574681,cataratasshop@mmartan.com.br
Mmartan,Vinhedo,"Rodovia Anhanguera, 3117, KM 77,5",Distrito Industrial Benedito Storani,13288000,,(19) 991245789,SP,Vinhedo,,,"[<Selector xpath=""descendant-or-self::div[@class and contains(concat(' ', normalize-space(@class), ' '), ' x21smb-0 ') and (@class and contains(concat(' ', normalize-space(@class), ' '), ' eaLBM '))]/p/span/text()"" data='Ammo Varejo Ltda CNPJ: 03.494.776/001...'>]",Artigos Diversos,,,,-23.050479,-47.002217,vinhedo@mmartan.com.br
Mmartan,Park Shopping Brasilia,"SMAS, BL 6580 , Lojas 250-C e 251",Zona Industrial (Guará),71219900,,(19) 991290450,DF,Brasília,,,"[<Selector xpath=""descendant-or-self::div[@class and contains(concat(' ', normalize-space(@class), ' '), ' x21smb-0 ') and (@class and contains(concat(' ', normalize-space(@class), ' '), ' eaLBM '))]/p/span/text()"" data='Ammo Varejo Ltda CNPJ: 03.494.776/001...'>]",Artigos Diversos,,,,-15.834351,-47.954769,parkshop@mmartan.com.br
Mmartan,Shopping Flamboyant,"Avenida Deputado Jamel Cecílio, 3300, QD B34, LT 2E, Loja S25",Jardim Goiás,74810100,,(19) 991285029,GO,Goiânia,,,"[<Selector xpath=""descendant-or-self::div[@class and contains(concat(' ', normalize-space(@class), ' '), ' x21smb-0 ') and (@class and contains(concat(' ', normalize-space(@class), ' '), ' eaLBM '))]/p/span/text()"" data='Ammo Varejo Ltda CNPJ: 03.494.776/001...'>]",Artigos Diversos,,,,-16.709759,-49.235716,flamboyant@mmartan.com.br
Mmartan,Outlet Premium Brasília,"null, S/N, KM 22 , Lojas 1013/1014",,72930000,,(19) 991286545,GO,Alexânia,,,"[<Selector xpath=""descendant-or-self::div[@class and contains(concat(' ', normalize-space(@class), ' '), ' x21smb-0 ') and (@class and contains(concat(' ', normalize-space(@class), ' '), ' eaLBM '))]/p/span/text()"" data='Ammo Varejo Ltda CNPJ: 03.494.776/001...'>]",Artigos Diversos,,,,-16.121087,-48.398269,outletbrasilia@mmartan.com.br
Mmartan,BH Shopping,"Rodovia BR-356 3049, 3049, Loja 25",Belvedere,30320900,,(19) 991278735,MG,Belo Horizonte,,,"[<Selector xpath=""descendant-or-self::div[@class and contains(concat(' ', normalize-space(@class), ' '), ' x21smb-0 ') and (@class and contains(concat(' ', normalize-space(@class), ' '), ' eaLBM '))]/p/span/text()"" data='Ammo Varejo Ltda CNPJ: 03.494.776/001...'>]",Artigos Diversos,,,,-19.974255,-43.944254,bhshopping@mmartan.com.br
Mmartan,Diamond Mall,"Avenida Olegário Maciel, 1600, Lojas BG 22/23",Lourdes,30180111,,(19) 991274552,MG,Belo Horizonte,,,"[<Selector xpath=""descendant-or-self::div[@class and contains(concat(' ', normalize-space(@class), ' '), ' x21smb-0 ') and (@class and contains(concat(' ', normalize-space(@class), ' '), ' eaLBM '))]/p/span/text()"" data='Ammo Varejo Ltda CNPJ: 03.494.776/001...'>]",Artigos Diversos,,,,-19.928103,-43.946757,diamond@mmartan.com.br
Mmartan,Shopping Rio Sul,"Avenida Lauro Sodré, 445, Loja 201, PTE. B29",Botafogo,22290070,,(19) 991270815,RJ,Rio de Janeiro,,,"[<Selector xpath=""descendant-or-self::div[@class and contains(concat(' ', normalize-space(@class), ' '), ' x21smb-0 ') and (@class and contains(concat(' ', normalize-space(@class), ' '), ' eaLBM '))]/p/span/text()"" data='Ammo Varejo Ltda CNPJ: 03.494.776/001...'>]",Artigos Diversos,,,,-22.956668,-43.176934,riosul@mmartan.com.br
Mmartan,Sete de Setembro,"Rua Sete de Setembro, 76, Lojas D/E",Centro,20050009,,(19) 991268158,RJ,Rio de Janeiro,,,"[<Selector xpath=""descendant-or-self::div[@class and contains(concat(' ', normalize-space(@class), ' '), ' x21smb-0 ') and (@class and contains(concat(' ', normalize-space(@class), ' '), ' eaLBM '))]/p/span/text()"" data='Ammo Varejo Ltda CNPJ: 03.494.776/001...'>]",Artigos Diversos,,,,-22.904676,-43.177266,sete@mmartan.com.br
Mmartan,Barra Shopping,"Avenida Armando Lombardi, 4666, Loja 218 F",Barra da Tijuca,22640000,,(19) 991271490,RJ,Rio de Janeiro,,,"[<Selector xpath=""descendant-or-self::div[@class and contains(concat(' ', normalize-space(@class), ' '), ' x21smb-0 ') and (@class and contains(concat(' ', normalize-space(@class), ' '), ' eaLBM '))]/p/span/text()"" data='Ammo Varejo Ltda CNPJ: 03.494.776/001...'>]",Artigos Diversos,,,,-22.998596,-43.357985,barra@mmartan.com.br
Mmartan,Plaza Niteroi,"Rua Quinze de Novembro, 08, Lojas 309A",Centro,24020125,,2126135461,RJ,Niterói,,,"[<Selector xpath=""descendant-or-self::div[@class and contains(concat(' ', normalize-space(@class), ' '), ' x21smb-0 ') and (@class and contains(concat(' ', normalize-space(@class), ' '), ' eaLBM '))]/p/span/text()"" data='Ammo Varejo Ltda CNPJ: 03.494.776/001...'>]",Artigos Diversos,,,,-22.896349,-43.124398,plazaniteroi@mmartan.com.br
Mmartan,Outlet Premium São Paulo,"null, 9999, Loja 04",,13295000,,(19) 993579130,SP,Itupeva,,,"[<Selector xpath=""descendant-or-self::div[@class and contains(concat(' ', normalize-space(@class), ' '), ' x21smb-0 ') and (@class and contains(concat(' ', normalize-space(@class), ' '), ' eaLBM '))]/p/span/text()"" data='Ammo Varejo Ltda CNPJ: 03.494.776/001...'>]",Artigos Diversos,,,,-23.108379,-47.008777,premium@mmartan.com.br
Mmartan,Morumbi Shopping,"Avenida Roque Petroni Júnior, 1089, Loja 93",Jardim das Acácias,04707000,,(19) 991259106,SP,São Paulo,,,"[<Selector xpath=""descendant-or-self::div[@class and contains(concat(' ', normalize-space(@class), ' '), ' x21smb-0 ') and (@class and contains(concat(' ', normalize-space(@class), ' '), ' eaLBM '))]/p/span/text()"" data='Ammo Varejo Ltda CNPJ: 03.494.776/001...'>]",Artigos Diversos,,,,-23.622104,-46.697787,morumbi@mmartan.com.br
Mmartan,Rebouças,"Avenida Rebouças, 2121",Pinheiros,05401300,,(19) 995227380,SP,São Paulo,,,"[<Selector xpath=""descendant-or-self::div[@class and contains(concat(' ', normalize-space(@class), ' '), ' x21smb-0 ') and (@class and contains(concat(' ', normalize-space(@class), ' '), ' eaLBM '))]/p/span/text()"" data='Ammo Varejo Ltda CNPJ: 03.494.776/001...'>]",Artigos Diversos,,,,-23.565881,-46.680727,reboucas@mmartan.com.br
Mmartan,Shopping Villa Lobos,"Avenida Doutora Ruth Cardoso, 4777, Loja 135, Térreo",Jardim Universidade Pinheiros,05477000,,(19) 995227380,SP,São Paulo,,,"[<Selector xpath=""descendant-or-self::div[@class and contains(concat(' ', normalize-space(@class), ' '), ' x21smb-0 ') and (@class and contains(concat(' ', normalize-space(@class), ' '), ' eaLBM '))]/p/span/text()"" data='Ammo Varejo Ltda CNPJ: 03.494.776/001...'>]",Artigos Diversos,,,,-23.551773,-46.72243,villalobos@mmartan.com.br
Mmartan,Anchieta,"Rua Camila Basso, 12, Anexo 34",Demarchi,09811260,,(19) 991241218,SP,São Bernardo do Campo,,,"[<Selector xpath=""descendant-or-self::div[@class and contains(concat(' ', normalize-space(@class), ' '), ' x21smb-0 ') and (@class and contains(concat(' ', normalize-space(@class), ' '), ' eaLBM '))]/p/span/text()"" data='Ammo Varejo Ltda CNPJ: 03.494.776/001...'>]",Artigos Diversos,,,,-23.723864,-46.553614,anchieta@mmartan.com.br
Mmartan,Tatuapé,"Rua Cantagalo, 1371",Vila Gomes Cardim,03319001,,(19) 991244663,SP,São Paulo,,,"[<Selector xpath=""descendant-or-self::div[@class and contains(concat(' ', normalize-space(@class), ' '), ' x21smb-0 ') and (@class and contains(concat(' ', normalize-space(@class), ' '), ' eaLBM '))]/p/span/text()"" data='Ammo Varejo Ltda CNPJ: 03.494.776/001...'>]",Artigos Diversos,,,,-23.544471,-46.561163,tatuape@mmartan.com.br
Mmartan,Center Norte,"Travessa Casalbuono, 120, Loja 223, Térreo",Vila Guilherme,02047050,,(19) 991261785,SP,São Paulo,,,"[<Selector xpath=""descendant-or-self::div[@class and contains(concat(' ', normalize-space(@class), ' '), ' x21smb-0 ') and (@class and contains(concat(' ', normalize-space(@class), ' '), ' eaLBM '))]/p/span/text()"" data='Ammo Varejo Ltda CNPJ: 03.494.776/001...'>]",Artigos Diversos,,,,-23.516031,-46.617929,cnorte@mmartan.com.br
Mmartan,Pacaembu,"Avenida Pacaembu, 885",Pacaembu,01234001,,(19) 991252928,SP,São Paulo,,,"[<Selector xpath=""descendant-or-self::div[@class and contains(concat(' ', normalize-space(@class), ' '), ' x21smb-0 ') and (@class and contains(concat(' ', normalize-space(@class), ' '), ' eaLBM '))]/p/span/text()"" data='Ammo Varejo Ltda CNPJ: 03.494.776/001...'>]",Artigos Diversos,,,,-23.534249,-46.661958,pacaembu@mmartan.com.br
Mmartan,Galleria Shopping,"Avenida Selma Parada, 505, Loja A 210",Jardim Madalena,13091605,,(19) 999505856,SP,Campinas,,,"[<Selector xpath=""descendant-or-self::div[@class and contains(concat(' ', normalize-space(@class), ' '), ' x21smb-0 ') and (@class and contains(concat(' ', normalize-space(@class), ' '), ' eaLBM '))]/p/span/text()"" data='Ammo Varejo Ltda CNPJ: 03.494.776/001...'>]",Artigos Diversos,,,,-22.863758,-47.023432,galleria@mmartan.com.br
Mmartan,Divinópolis,"Rua São Paulo, 462",Centro,35500006,,(37) 988445555,MG,Divinópolis,,,"[<Selector xpath=""descendant-or-self::div[@class and contains(concat(' ', normalize-space(@class), ' '), ' x21smb-0 ') and (@class and contains(concat(' ', normalize-space(@class), ' '), ' eaLBM '))]/p/span/text()"" data='Ammo Varejo Ltda CNPJ: 03.494.776/001...'>]",Artigos Diversos,,,,-20.143838,-44.88942,fr_divinopolis@mmartan.com.br
Mmartan,Catuai Shopping Londrina,"Rodovia Celso Garcia Cid km 377,  KM 377,  Loja A10/11, Térreo",Gleba Fazenda Palhano,86050901,,(43) 999217500,PR,Londrina,,,"[<Selector xpath=""descendant-or-self::div[@class and contains(concat(' ', normalize-space(@class), ' '), ' x21smb-0 ') and (@class and contains(concat(' ', normalize-space(@class), ' '), ' eaLBM '))]/p/span/text()"" data='Ammo Varejo Ltda CNPJ: 03.494.776/001...'>]",Artigos Diversos,,,,-23.342401,-51.183791,fr_londrina@mmartan.com.br
Mmartan,Balneário Camboriú,"Avenida Brasil, 1300",Centro,88330048,,(47) 21257841,SC,Balneário Camboriú,,,"[<Selector xpath=""descendant-or-self::div[@class and contains(concat(' ', normalize-space(@class), ' '), ' x21smb-0 ') and (@class and contains(concat(' ', normalize-space(@class), ' '), ' eaLBM '))]/p/span/text()"" data='Ammo Varejo Ltda CNPJ: 03.494.776/001...'>]",Artigos Diversos,,,,-26.985878,-48.637539,fr_bcm@mmartan.com.br
Mmartan,Chapecó,"Rua Marechal José B. Bormann - D,  82 D",Centro,89801050,,(49) 999702961,SC,Chapecó,,,"[<Selector xpath=""descendant-or-self::div[@class and contains(concat(' ', normalize-space(@class), ' '), ' x21smb-0 ') and (@class and contains(concat(' ', normalize-space(@class), ' '), ' eaLBM '))]/p/span/text()"" data='Ammo Varejo Ltda CNPJ: 03.494.776/001...'>]",Artigos Diversos,,,,-27.101649,-52.614243,fr_chapeco@mmartan.com.br
Mmartan,Balneário Camboriu Shopping,"Avenida Santa Catarina, 01, Loja 59, Térreo",Estados,88339005,,(47) 96133493,SC,Balneário Camboriú,,,"[<Selector xpath=""descendant-or-self::div[@class and contains(concat(' ', normalize-space(@class), ' '), ' x21smb-0 ') and (@class and contains(concat(' ', normalize-space(@class), ' '), ' eaLBM '))]/p/span/text()"" data='Ammo Varejo Ltda CNPJ: 03.494.776/001...'>]",Artigos Diversos,,,,-26.992863,-48.64604,fr_balneario@mmartan.com.br
Mmartan,Shopping Itaguaçu,"Rua Gerôncio Thives 1079, 1079, Lojas 267/268, Térreo",Barreiros,88117900,,(15) 997255625,SC,São José,,,"[<Selector xpath=""descendant-or-self::div[@class and contains(concat(' ', normalize-space(@class), ' '), ' x21smb-0 ') and (@class and contains(concat(' ', normalize-space(@class), ' '), ' eaLBM '))]/p/span/text()"" data='Ammo Varejo Ltda CNPJ: 03.494.776/001...'>]",Artigos Diversos,,,,-27.585346,-48.614626,fr_itaguacu@mmartan.com.br
Mmartan,Shopping Estação Cuiabá,"Avenida Miguel Sutil,  S/N, Loja 2073 Pavimento L2",Santa Rosa,78040365,,(65) 996159127,MT,Cuiabá,,,"[<Selector xpath=""descendant-or-self::div[@class and contains(concat(' ', normalize-space(@class), ' '), ' x21smb-0 ') and (@class and contains(concat(' ', normalize-space(@class), ' '), ' eaLBM '))]/p/span/text()"" data='Ammo Varejo Ltda CNPJ: 03.494.776/001...'>]",Artigos Diversos,,,,-15.589701,-56.118222,fr_seb@mmartan.com.br
Mmartan,Shopping Jaraguá Araraquara,"Acesso Engenheiro Heitor de Souza Pinheiro, 2270,  Loja 11, Térreo",Vila Santana,14801600,,(16) 981606991,SP,Araraquara,,,"[<Selector xpath=""descendant-or-self::div[@class and contains(concat(' ', normalize-space(@class), ' '), ' x21smb-0 ') and (@class and contains(concat(' ', normalize-space(@class), ' '), ' eaLBM '))]/p/span/text()"" data='Ammo Varejo Ltda CNPJ: 03.494.776/001...'>]",Artigos Diversos,,,,-21.784483,-48.202082,fr_araraquara@mmartan.com.br
Mmartan,Sorocaba,"Avenida Antônio Carlos Comitre, 426",Parque Campolim,18047620,,(15) 997631525,SP,Sorocaba,,,"[<Selector xpath=""descendant-or-self::div[@class and contains(concat(' ', normalize-space(@class), ' '), ' x21smb-0 ') and (@class and contains(concat(' ', normalize-space(@class), ' '), ' eaLBM '))]/p/span/text()"" data='Ammo Varejo Ltda CNPJ: 03.494.776/001...'>]",Artigos Diversos,,,,-23.519779,-47.466908,fr_esplanada@mmartan.com.br
Mmartan,Araçatuba,"Avenida Brasília, 1464",Vila Santa Maria,16015645,,(18) 981107475,SP,Araçatuba,,,"[<Selector xpath=""descendant-or-self::div[@class and contains(concat(' ', normalize-space(@class), ' '), ' x21smb-0 ') and (@class and contains(concat(' ', normalize-space(@class), ' '), ' eaLBM '))]/p/span/text()"" data='Ammo Varejo Ltda CNPJ: 03.494.776/001...'>]",Artigos Diversos,,,,-21.22016,-50.437684,fr_aracatuba@mmartan.com.br
Mmartan,Americana,"Rua Fortunato Faraone, 382",Jardim Girassol,13465660,,(19) 999988300,SP,Americana,,,"[<Selector xpath=""descendant-or-self::div[@class and contains(concat(' ', normalize-space(@class), ' '), ' x21smb-0 ') and (@class and contains(concat(' ', normalize-space(@class), ' '), ' eaLBM '))]/p/span/text()"" data='Ammo Varejo Ltda CNPJ: 03.494.776/001...'>]",Artigos Diversos,,,,-22.74414,-47.336876,fr_americana@mmartan.com.br
Mmartan,São Luis,"Avenida dos Holandeses, 7,  Quadra 07, Loja 02",Calhau,65071380,,(98) 989302510,MA,São Luís,,,"[<Selector xpath=""descendant-or-self::div[@class and contains(concat(' ', normalize-space(@class), ' '), ' x21smb-0 ') and (@class and contains(concat(' ', normalize-space(@class), ' '), ' eaLBM '))]/p/span/text()"" data='Ammo Varejo Ltda CNPJ: 03.494.776/001...'>]",Artigos Diversos,,,,-2.493441,-44.269723,saoluis@mmartan.com.br
Mmartan,Marília Shopping,"Rua dos Tucunarés, 500,  Lojas 35/36, Térreo",Jardim Maria Martha,17507280,,(14) 996296104,SP,Marília,,,"[<Selector xpath=""descendant-or-self::div[@class and contains(concat(' ', normalize-space(@class), ' '), ' x21smb-0 ') and (@class and contains(concat(' ', normalize-space(@class), ' '), ' eaLBM '))]/p/span/text()"" data='Ammo Varejo Ltda CNPJ: 03.494.776/001...'>]",Artigos Diversos,,,,-22.186754,-49.966844,fr_marilia@mmartan.com.br
Mmartan,Shopping Vila Velha,"Rua Luciano das Neves 2418, 2418, Loja 2061, 2° Piso",Divino Espírito Santo,29107900,,(27) 992563562,ES,Vila Velha,,,"[<Selector xpath=""descendant-or-self::div[@class and contains(concat(' ', normalize-space(@class), ' '), ' x21smb-0 ') and (@class and contains(concat(' ', normalize-space(@class), ' '), ' eaLBM '))]/p/span/text()"" data='Ammo Varejo Ltda CNPJ: 03.494.776/001...'>]",Artigos Diversos,,,,-20.352033,-40.297881,fr_vilavelha@mmartan.com.br
Mmartan,Outlet Premium Grande São Paulo,"Estrada de São Bento, 9550, LOJA 222",Jardim Josely,08590315,,(11) 43804969,SP,Itaquaquecetuba,,,"[<Selector xpath=""descendant-or-self::div[@class and contains(concat(' ', normalize-space(@class), ' '), ' x21smb-0 ') and (@class and contains(concat(' ', normalize-space(@class), ' '), ' eaLBM '))]/p/span/text()"" data='Ammo Varejo Ltda CNPJ: 03.494.776/001...'>]",Artigos Diversos,,,,-23.432803,-46.270427,outletgrandesaopaulo@mmartan.com.br
Mmartan,Mooca Plaza Shopping,"Rua Capitão Pacheco e Chaves, 313,  Loja 1093, 1º Piso",Vila Prudente,03126000,,(11) 989314228,SP,São Paulo,,,"[<Selector xpath=""descendant-or-self::div[@class and contains(concat(' ', normalize-space(@class), ' '), ' x21smb-0 ') and (@class and contains(concat(' ', normalize-space(@class), ' '), ' eaLBM '))]/p/span/text()"" data='Ammo Varejo Ltda CNPJ: 03.494.776/001...'>]",Artigos Diversos,,,,-23.581441,-46.595049,fr_shoppingmooca@mmartan.com.br
Mmartan,Shopping Curitiba,"Rua Brigadeiro Franco, 2300, Lojas 321/322",Centro,80250030,,(41) 30147121,PR,Curitiba,,,"[<Selector xpath=""descendant-or-self::div[@class and contains(concat(' ', normalize-space(@class), ' '), ' x21smb-0 ') and (@class and contains(concat(' ', normalize-space(@class), ' '), ' eaLBM '))]/p/span/text()"" data='Ammo Varejo Ltda CNPJ: 03.494.776/001...'>]",Artigos Diversos,,,,-25.441066,-49.277339,fr_sca@mmartan.com.br
Mmartan,Plaza Shopping Recife,"Rua Doutor João Santos Filho 255, 255,  Lojas 07/08, 2º Piso",Casa Forte,52060904,,(81) 996707777,PE,Recife,,,"[<Selector xpath=""descendant-or-self::div[@class and contains(concat(' ', normalize-space(@class), ' '), ' x21smb-0 ') and (@class and contains(concat(' ', normalize-space(@class), ' '), ' eaLBM '))]/p/span/text()"" data='Ammo Varejo Ltda CNPJ: 03.494.776/001...'>]",Artigos Diversos,,,,-8.036731,-34.912982,fr_plazarecife@mmartan.com.br
Mmartan,Moema,"Alameda dos Nhambiquaras, 511",Indianópolis,04090010,,(11) 944903011,SP,São Paulo,,,"[<Selector xpath=""descendant-or-self::div[@class and contains(concat(' ', normalize-space(@class), ' '), ' x21smb-0 ') and (@class and contains(concat(' ', normalize-space(@class), ' '), ' eaLBM '))]/p/span/text()"" data='Ammo Varejo Ltda CNPJ: 03.494.776/001...'>]",Artigos Diversos,,,,-23.604381,-46.656827,fr_moema@mmartan.com.br
Mmartan,Taguatinga Shopping,"QS 1 Rua 210 Lote 40,  Lote 40,  Lojas 2100/2101/2102/2103, 2º Piso",Areal (Águas Claras),71950904,,(61) 981012343,DF,Brasília,,,"[<Selector xpath=""descendant-or-self::div[@class and contains(concat(' ', normalize-space(@class), ' '), ' x21smb-0 ') and (@class and contains(concat(' ', normalize-space(@class), ' '), ' eaLBM '))]/p/span/text()"" data='Ammo Varejo Ltda CNPJ: 03.494.776/001...'>]",Artigos Diversos,,,,-15.841578,-48.043594,fr_taguatinga@mmartan.com.br
Mmartan,Midway Mall,"Avenida Bernardo Vieira 3775, 3775,  Loja 343, B L3",Tirol,59015900,,(84) 999284477,RN,Natal,,,"[<Selector xpath=""descendant-or-self::div[@class and contains(concat(' ', normalize-space(@class), ' '), ' x21smb-0 ') and (@class and contains(concat(' ', normalize-space(@class), ' '), ' eaLBM '))]/p/span/text()"" data='Ammo Varejo Ltda CNPJ: 03.494.776/001...'>]",Artigos Diversos,,,,-5.812089,-35.206701,fr_midway@mmartan.com.br
Mmartan,Partage Shopping Mossoró,"Rua Sebastião Saraiva, 1515,  Loja 85/86, Térreo",Aeroporto,59607300,,(88) 81300444,RN,Mossoró,,,"[<Selector xpath=""descendant-or-self::div[@class and contains(concat(' ', normalize-space(@class), ' '), ' x21smb-0 ') and (@class and contains(concat(' ', normalize-space(@class), ' '), ' eaLBM '))]/p/span/text()"" data='Ammo Varejo Ltda CNPJ: 03.494.776/001...'>]",Artigos Diversos,,,,-5.171225,-37.375938,fr_mossoro@mmartan.com.br
Mmartan,Catanduva,"Rua Minas Gerais, 451",Centro,15800210,,(17) 991432422,SP,Catanduva,,,"[<Selector xpath=""descendant-or-self::div[@class and contains(concat(' ', normalize-space(@class), ' '), ' x21smb-0 ') and (@class and contains(concat(' ', normalize-space(@class), ' '), ' eaLBM '))]/p/span/text()"" data='Ammo Varejo Ltda CNPJ: 03.494.776/001...'>]",Artigos Diversos,,,,-21.137186,-48.974795,fr_catanduva@mmartan.com.br
Mmartan,Jundiaí,"Rua do Retiro, 1150",Jardim Paris,13209201,,(11) 955554809,SP,Jundiaí,,,"[<Selector xpath=""descendant-or-self::div[@class and contains(concat(' ', normalize-space(@class), ' '), ' x21smb-0 ') and (@class and contains(concat(' ', normalize-space(@class), ' '), ' eaLBM '))]/p/span/text()"" data='Ammo Varejo Ltda CNPJ: 03.494.776/001...'>]",Artigos Diversos,,,,-23.185151,-46.898541,fr_jundiai@mmartan.com.br
Mmartan,Park Shopping Canoas,"Avenida Farroupilha, 4545,  Loja 3125, 3º Piso",Marechal Rondon,92020475,,(51) 81219220,RS,Canoas,,,"[<Selector xpath=""descendant-or-self::div[@class and contains(concat(' ', normalize-space(@class), ' '), ' x21smb-0 ') and (@class and contains(concat(' ', normalize-space(@class), ' '), ' eaLBM '))]/p/span/text()"" data='Ammo Varejo Ltda CNPJ: 03.494.776/001...'>]",Artigos Diversos,,,,-29.915849,-51.165783,fr_parkshopcanoas@mmartan.com.br
Mmartan,Shopping ABC,"Avenida Pereira Barreto, 42, Lojas 242, 2º Piso",Paraíso,09190210,,(11) 945223836,SP,Santo André,,,"[<Selector xpath=""descendant-or-self::div[@class and contains(concat(' ', normalize-space(@class), ' '), ' x21smb-0 ') and (@class and contains(concat(' ', normalize-space(@class), ' '), ' eaLBM '))]/p/span/text()"" data='Ammo Varejo Ltda CNPJ: 03.494.776/001...'>]",Artigos Diversos,,,,-23.668524,-46.533206,fr_abcshopping@mmartan.com.br
Mmartan,Iguatemi São José do Rio Preto,"Avenida Presidente Juscelino Kubitschek de Oliveira, 5000,  Loja 1080, 1º Piso",Iguatemi,15093340,,(17) 997815009,SP,São José do Rio Preto,,,"[<Selector xpath=""descendant-or-self::div[@class and contains(concat(' ', normalize-space(@class), ' '), ' x21smb-0 ') and (@class and contains(concat(' ', normalize-space(@class), ' '), ' eaLBM '))]/p/span/text()"" data='Ammo Varejo Ltda CNPJ: 03.494.776/001...'>]",Artigos Diversos,,,,-20.866195,-49.414681,fr_iriopreto@mmartan.com.br
Mmartan,Shopping Mueller Curitiba,"Avenida Cândido de Abreu 127, 127, Loja 021, Piso ML",Centro Cívico,80530900,,(41) 997634011,PR,Curitiba,,,"[<Selector xpath=""descendant-or-self::div[@class and contains(concat(' ', normalize-space(@class), ' '), ' x21smb-0 ') and (@class and contains(concat(' ', normalize-space(@class), ' '), ' eaLBM '))]/p/span/text()"" data='Ammo Varejo Ltda CNPJ: 03.494.776/001...'>]",Artigos Diversos,,,,-25.423316,-49.270288,fr_smu@mmartan.com.br
Mmartan,Shopping Bougainville,"Rua 9, 1855,  Loja 125, 2º Piso, 2º Piso",Setor Marista,74150130,,(62) 82000380,GO,Goiânia,,,"[<Selector xpath=""descendant-or-self::div[@class and contains(concat(' ', normalize-space(@class), ' '), ' x21smb-0 ') and (@class and contains(concat(' ', normalize-space(@class), ' '), ' eaLBM '))]/p/span/text()"" data='Ammo Varejo Ltda CNPJ: 03.494.776/001...'>]",Artigos Diversos,,,,-16.695507,-49.265759,fr_bougainville@mmartan.com.br
Mmartan,Royal Plaza Shopping,"Avenida Nossa Senhora das Dores, 305,  Lojas 315/316, 3º Piso",Nossa Senhora das Dores,97050531,,(55) 981031967,RS,Santa Maria,,,"[<Selector xpath=""descendant-or-self::div[@class and contains(concat(' ', normalize-space(@class), ' '), ' x21smb-0 ') and (@class and contains(concat(' ', normalize-space(@class), ' '), ' eaLBM '))]/p/span/text()"" data='Ammo Varejo Ltda CNPJ: 03.494.776/001...'>]",Artigos Diversos,,,,-29.689785,-53.795063,fr_santamaria@mmartan.com.br
Mmartan,Iguatemi Fortaleza,"Avenida Washington Soares 85, 85,  Loja 219, Térreo",Edson Queiroz,60811900,,(85) 89032620,CE,Fortaleza,,,"[<Selector xpath=""descendant-or-self::div[@class and contains(concat(' ', normalize-space(@class), ' '), ' x21smb-0 ') and (@class and contains(concat(' ', normalize-space(@class), ' '), ' eaLBM '))]/p/span/text()"" data='Ammo Varejo Ltda CNPJ: 03.494.776/001...'>]",Artigos Diversos,,,,-3.757319,-38.489624,fr_ifortaleza@mmartan.com.br
Mmartan,Parque Shopping Maceió,"Avenida Comendador Gustavo Paiva, 5945,  Loja 2022, 2º Piso",Cruz das Almas,57038000,,(82) 88892093,AL,Maceió,,,"[<Selector xpath=""descendant-or-self::div[@class and contains(concat(' ', normalize-space(@class), ' '), ' x21smb-0 ') and (@class and contains(concat(' ', normalize-space(@class), ' '), ' eaLBM '))]/p/span/text()"" data='Ammo Varejo Ltda CNPJ: 03.494.776/001...'>]",Artigos Diversos,,,,-9.657058,-35.723596,fr_parquemaceio@mmartan.com.br
Mmartan,Shopping Pátio Dom Luis,"Avenida Dom Luís, 1200,  Lojas 110/111, 1º Piso",Meireles,60160230,,(85) 82098988,CE,Fortaleza,,,"[<Selector xpath=""descendant-or-self::div[@class and contains(concat(' ', normalize-space(@class), ' '), ' x21smb-0 ') and (@class and contains(concat(' ', normalize-space(@class), ' '), ' eaLBM '))]/p/span/text()"" data='Ammo Varejo Ltda CNPJ: 03.494.776/001...'>]",Artigos Diversos,,,,-3.735827,-38.489902,fr_domluis@mmartan.com.br
Mmartan,Campos dos Goytacazes,"Rua Conselheiro José Fernandes, 412,  Loja 01",Centro,28035232,,(22) 998252863,RJ,Campos dos Goytacazes,,,"[<Selector xpath=""descendant-or-self::div[@class and contains(concat(' ', normalize-space(@class), ' '), ' x21smb-0 ') and (@class and contains(concat(' ', normalize-space(@class), ' '), ' eaLBM '))]/p/span/text()"" data='Ammo Varejo Ltda CNPJ: 03.494.776/001...'>]",Artigos Diversos,,,,-21.759185,-41.333314,fr_campos@mmartan.com.br
Mmartan,Shopping da Ilha,"Avenida Daniel de La Touche, 987, loja 301J/K",Cohama,65074115,,(98) 982063332,MA,São Luís,,,"[<Selector xpath=""descendant-or-self::div[@class and contains(concat(' ', normalize-space(@class), ' '), ' x21smb-0 ') and (@class and contains(concat(' ', normalize-space(@class), ' '), ' eaLBM '))]/p/span/text()"" data='Ammo Varejo Ltda CNPJ: 03.494.776/001...'>]",Artigos Diversos,,,,-2.528179,-44.254643,fr_shoppingdailha@mmartan.com.br
Mmartan,Sinop,"Rua das Graviolas, 383, Sala 01",Setor Comercial,78550136,,(66) 996953193,MT,Sinop,,,"[<Selector xpath=""descendant-or-self::div[@class and contains(concat(' ', normalize-space(@class), ' '), ' x21smb-0 ') and (@class and contains(concat(' ', normalize-space(@class), ' '), ' eaLBM '))]/p/span/text()"" data='Ammo Varejo Ltda CNPJ: 03.494.776/001...'>]",Artigos Diversos,,,,-11.852812,-55.512069,fr_sinop@mmartan.com.br
Mmartan,Rio Branco,"Avenida Ceará, 833",Cerâmica,69905066,,(68) 999029986,AC,Rio Branco,,,"[<Selector xpath=""descendant-or-self::div[@class and contains(concat(' ', normalize-space(@class), ' '), ' x21smb-0 ') and (@class and contains(concat(' ', normalize-space(@class), ' '), ' eaLBM '))]/p/span/text()"" data='Ammo Varejo Ltda CNPJ: 03.494.776/001...'>]",Artigos Diversos,,,,-9.986338,-67.846245,fr_rba@mmartan.com.br
Mmartan,Park Shopping Barigui,"Rua Professor Pedro Viriato Parigot de Souza, 600, Loja 259A, 2º Piso",Mossunguê,81200100,,(41) 98000145,PR,Curitiba,,,"[<Selector xpath=""descendant-or-self::div[@class and contains(concat(' ', normalize-space(@class), ' '), ' x21smb-0 ') and (@class and contains(concat(' ', normalize-space(@class), ' '), ' eaLBM '))]/p/span/text()"" data='Ammo Varejo Ltda CNPJ: 03.494.776/001...'>]",Artigos Diversos,,,,-25.436248,-49.316931,fr_barigui@mmartan.com.br
Mmartan,Sumaré,"Avenida Sumaré, 997",Perdizes,05016110,,(11) 940665919,SP,São Paulo,,,"[<Selector xpath=""descendant-or-self::div[@class and contains(concat(' ', normalize-space(@class), ' '), ' x21smb-0 ') and (@class and contains(concat(' ', normalize-space(@class), ' '), ' eaLBM '))]/p/span/text()"" data='Ammo Varejo Ltda CNPJ: 03.494.776/001...'>]",Artigos Diversos,,,,-23.539189,-46.674826,fr_sumare@mmartan.com.br
Mmartan,Jaú Shopping,"Avenida Doutor Quinzinho, 511,  Lojas 24/27, Térreo",Chácara Peccioli,17210110,,(14) 991176541,SP,Jaú,,,"[<Selector xpath=""descendant-or-self::div[@class and contains(concat(' ', normalize-space(@class), ' '), ' x21smb-0 ') and (@class and contains(concat(' ', normalize-space(@class), ' '), ' eaLBM '))]/p/span/text()"" data='Ammo Varejo Ltda CNPJ: 03.494.776/001...'>]",Artigos Diversos,,,,-22.297784,-48.545601,fr_jau@mmartan.com.br
Mmartan,Riomar Aracaju,"Av. Luiz Lua Gonzaga, 400,  Lojas 243/244/232B, 2º Piso",Coroa Do Meio,49035000,,(81) 81739739,SE,Aracaju,,,"[<Selector xpath=""descendant-or-self::div[@class and contains(concat(' ', normalize-space(@class), ' '), ' x21smb-0 ') and (@class and contains(concat(' ', normalize-space(@class), ' '), ' eaLBM '))]/p/span/text()"" data='Ammo Varejo Ltda CNPJ: 03.494.776/001...'>]",Artigos Diversos,,,,-10.94553,-37.047806,fr_aracaju@mmartan.com.br
Mmartan,Amapá Garden Shopping,"Rodovia Juscelino Kubitschek, 2141,  Loja 216/215, 2º Piso",Universidade,68903419,,(96) 99110086,AP,Macapá,,,"[<Selector xpath=""descendant-or-self::div[@class and contains(concat(' ', normalize-space(@class), ' '), ' x21smb-0 ') and (@class and contains(concat(' ', normalize-space(@class), ' '), ' eaLBM '))]/p/span/text()"" data='Ammo Varejo Ltda CNPJ: 03.494.776/001...'>]",Artigos Diversos,,,,-0.00836,-51.08144,fr_amapagarden@mmartan.com.br
Mmartan,Shopping Recife,"Rua Padre Carapuceiro 777, 777,  Lojas 69/70/71 BV, 2º Piso",Boa Viagem,51020900,,(81) 86484190,PE,Recife,,,"[<Selector xpath=""descendant-or-self::div[@class and contains(concat(' ', normalize-space(@class), ' '), ' x21smb-0 ') and (@class and contains(concat(' ', normalize-space(@class), ' '), ' eaLBM '))]/p/span/text()"" data='Ammo Varejo Ltda CNPJ: 03.494.776/001...'>]",Artigos Diversos,,,,-8.11949,-34.90439,fr_shoprecife@mmartan.com.br
Mmartan,Varginha,"Avenida Rui Barbosa, 49, Lojas 04/05",Centro,37002140,,(35) 999087411,MG,Varginha,,,"[<Selector xpath=""descendant-or-self::div[@class and contains(concat(' ', normalize-space(@class), ' '), ' x21smb-0 ') and (@class and contains(concat(' ', normalize-space(@class), ' '), ' eaLBM '))]/p/span/text()"" data='Ammo Varejo Ltda CNPJ: 03.494.776/001...'>]",Artigos Diversos,,,,-21.555513,-45.439735,fr_varginha@mmartan.com.br
Mmartan,Barra Shopping Sul,"Avenida Diário de Notícias, 300, Loja 2074",Cristal,90810080,,(51) 993551631,RS,Porto Alegre,,,"[<Selector xpath=""descendant-or-self::div[@class and contains(concat(' ', normalize-space(@class), ' '), ' x21smb-0 ') and (@class and contains(concat(' ', normalize-space(@class), ' '), ' eaLBM '))]/p/span/text()"" data='Ammo Varejo Ltda CNPJ: 03.494.776/001...'>]",Artigos Diversos,,,,-30.086095,-51.248381,fr_barrasul@mmartan.com.br
Mmartan,Praiamar Shopping,"Rua Alexandre Martins, 80,  Loja 258, 1º Piso",Aparecida,11025200,,(13) 996169567,SP,Santos,,,"[<Selector xpath=""descendant-or-self::div[@class and contains(concat(' ', normalize-space(@class), ' '), ' x21smb-0 ') and (@class and contains(concat(' ', normalize-space(@class), ' '), ' eaLBM '))]/p/span/text()"" data='Ammo Varejo Ltda CNPJ: 03.494.776/001...'>]",Artigos Diversos,,,,-23.97732,-46.309667,fr_santos@mmartan.com.br
Mmartan,Shopping Vitória,"Avenida Américo Buaiz 200, 200, Loja 512, 1º Piso",Enseada do Suá,29050902,,(27) 996935821,ES,Vitória,,,"[<Selector xpath=""descendant-or-self::div[@class and contains(concat(' ', normalize-space(@class), ' '), ' x21smb-0 ') and (@class and contains(concat(' ', normalize-space(@class), ' '), ' eaLBM '))]/p/span/text()"" data='Ammo Varejo Ltda CNPJ: 03.494.776/001...'>]",Artigos Diversos,,,,-20.312381,-40.288499,fr_vitoria2@mmartan.com.br
Mmartan,Iguatemi Porto Alegre,"Avenida João Wallig 1800, 1800, Lojas 2119/2123, 2º Piso",Passo da Areia,91349900,,(51) 93551631,RS,Porto Alegre,,,"[<Selector xpath=""descendant-or-self::div[@class and contains(concat(' ', normalize-space(@class), ' '), ' x21smb-0 ') and (@class and contains(concat(' ', normalize-space(@class), ' '), ' eaLBM '))]/p/span/text()"" data='Ammo Varejo Ltda CNPJ: 03.494.776/001...'>]",Artigos Diversos,,,,-30.024305,-51.161862,fr_iguatemipa@mmartan.com.br
Mmartan,Jardim Sul Shopping,"Avenida Giovanni Gronchi, 5819,  Lojas 393/394, 2º Piso",Vila Andrade,05724003,,(11) 997128880,SP,São Paulo,,,"[<Selector xpath=""descendant-or-self::div[@class and contains(concat(' ', normalize-space(@class), ' '), ' x21smb-0 ') and (@class and contains(concat(' ', normalize-space(@class), ' '), ' eaLBM '))]/p/span/text()"" data='Ammo Varejo Ltda CNPJ: 03.494.776/001...'>]",Artigos Diversos,,,,-23.630687,-46.736433,fr_jardimsul@mmartan.com.br
Mmartan,Cariri Garden Shopping,"Av. Padre Cicero, 2555,  Lojas 23/24, 1º Piso",Triangulo,63041140,,(88) 81300444,CE,Juazeiro Do Norte,,,"[<Selector xpath=""descendant-or-self::div[@class and contains(concat(' ', normalize-space(@class), ' '), ' x21smb-0 ') and (@class and contains(concat(' ', normalize-space(@class), ' '), ' eaLBM '))]/p/span/text()"" data='Ammo Varejo Ltda CNPJ: 03.494.776/001...'>]",Artigos Diversos,,,,-7.223597,-39.324734,fr_juazeirodonorte@mmartan.com.br
Mmartan,Boulevard Shopping Feira de Santana,"Avenida Governador João Durval Carneiro 3665, 3665,  Lojas 278/279, Térreo",São João,44051900,,(75) 991099862,BA,Feira de Santana,,,"[<Selector xpath=""descendant-or-self::div[@class and contains(concat(' ', normalize-space(@class), ' '), ' x21smb-0 ') and (@class and contains(concat(' ', normalize-space(@class), ' '), ' eaLBM '))]/p/span/text()"" data='Ammo Varejo Ltda CNPJ: 03.494.776/001...'>]",Artigos Diversos,,,,-12.241651,-38.949101,fr_feiradesantana@mmartan.com.br
Mmartan,Itabuna,"Travessa Santo André, 150",Nossa Senhora da Conceição,45605210,,(73) 36134758,BA,Itabuna,,,"[<Selector xpath=""descendant-or-self::div[@class and contains(concat(' ', normalize-space(@class), ' '), ' x21smb-0 ') and (@class and contains(concat(' ', normalize-space(@class), ' '), ' eaLBM '))]/p/span/text()"" data='Ammo Varejo Ltda CNPJ: 03.494.776/001...'>]",Artigos Diversos,,,,-14.791219,-39.271578,fr_itabuna@mmartan.com.br
Mmartan,Palmas,"Quadra ACSE 1 Avenida LO 1, 16, Sala 04",Plano Diretor Sul,77020020,,(63) 992154759,TO,Palmas,,,"[<Selector xpath=""descendant-or-self::div[@class and contains(concat(' ', normalize-space(@class), ' '), ' x21smb-0 ') and (@class and contains(concat(' ', normalize-space(@class), ' '), ' eaLBM '))]/p/span/text()"" data='Ammo Varejo Ltda CNPJ: 03.494.776/001...'>]",Artigos Diversos,,,,-10.188435,-48.326669,fr_palmas@mmartan.com.br
Mmartan,Boulevard Belem,"Avenida Visconde de Souza Franco, 776, SALA 338 ALTOS",Reduto,66053000,,(91) 91920155,PA,Belém,,,"[<Selector xpath=""descendant-or-self::div[@class and contains(concat(' ', normalize-space(@class), ' '), ' x21smb-0 ') and (@class and contains(concat(' ', normalize-space(@class), ' '), ' eaLBM '))]/p/span/text()"" data='Ammo Varejo Ltda CNPJ: 03.494.776/001...'>]",Artigos Diversos,,,,-1.445706,-48.488997,fr_sbe@mmartan.com.br
Mmartan,Colinas Shopping São Jose dos Campos,"Avenida São João, 2200,  EUC NT 36/37, Térreo",Jardim das Colinas,12242000,,(12) 981176771,SP,São José dos Campos,,,"[<Selector xpath=""descendant-or-self::div[@class and contains(concat(' ', normalize-space(@class), ' '), ' x21smb-0 ') and (@class and contains(concat(' ', normalize-space(@class), ' '), ' eaLBM '))]/p/span/text()"" data='Ammo Varejo Ltda CNPJ: 03.494.776/001...'>]",Artigos Diversos,,,,-23.204664,-45.908859,fr_colinas@mmartan.com.br
Mmartan,Shopping Uberaba,"Avenida Santa Beatriz da Silva, 1501,  Lojas 526/528, Térreo",São Benedito,38020433,,(34) 998891040,MG,Uberaba,,,"[<Selector xpath=""descendant-or-self::div[@class and contains(concat(' ', normalize-space(@class), ' '), ' x21smb-0 ') and (@class and contains(concat(' ', normalize-space(@class), ' '), ' eaLBM '))]/p/span/text()"" data='Ammo Varejo Ltda CNPJ: 03.494.776/001...'>]",Artigos Diversos,,,,-19.767529,-47.952971,fr_uberaba@mmartan.com.br
Mmartan,Barra Salvador,"Avenida Centenário, 2992, L2 LOJAS 214 E 215",Barra,40140400,,(71) 31877706,BA,Salvador,,,"[<Selector xpath=""descendant-or-self::div[@class and contains(concat(' ', normalize-space(@class), ' '), ' x21smb-0 ') and (@class and contains(concat(' ', normalize-space(@class), ' '), ' eaLBM '))]/p/span/text()"" data='Ammo Varejo Ltda CNPJ: 03.494.776/001...'>]",Artigos Diversos,,,,-13.006695,-38.526489,fr_bsv@mmartan.com.br
Mmartan,Maceió,"Avenida Álvaro Otacílio, 4515,  Loja 7",Jatiúca,57036850,,(82) 93079098,AL,Maceió,,,"[<Selector xpath=""descendant-or-self::div[@class and contains(concat(' ', normalize-space(@class), ' '), ' x21smb-0 ') and (@class and contains(concat(' ', normalize-space(@class), ' '), ' eaLBM '))]/p/span/text()"" data='Ammo Varejo Ltda CNPJ: 03.494.776/001...'>]",Artigos Diversos,,,,-9.64537,-35.700381,fr_maceio@mmartan.com.br
Mmartan,Presidente Prudente,"Avenida Washington Luiz, 2412",Jardim Paulista,19023450,,(18) 996271588,SP,Presidente Prudente,,,"[<Selector xpath=""descendant-or-self::div[@class and contains(concat(' ', normalize-space(@class), ' '), ' x21smb-0 ') and (@class and contains(concat(' ', normalize-space(@class), ' '), ' eaLBM '))]/p/span/text()"" data='Ammo Varejo Ltda CNPJ: 03.494.776/001...'>]",Artigos Diversos,,,,-22.115576,-51.403912,fr_prudente@mmartan.com.br
Mmartan,Iguatemi Praia de Belas,"Avenida Praia de Belas, 1181",Praia de Belas,90110001,,(51) 34753744,RS,Porto Alegre,,,"[<Selector xpath=""descendant-or-self::div[@class and contains(concat(' ', normalize-space(@class), ' '), ' x21smb-0 ') and (@class and contains(concat(' ', normalize-space(@class), ' '), ' eaLBM '))]/p/span/text()"" data='Ammo Varejo Ltda CNPJ: 03.494.776/001...'>]",Artigos Diversos,,,,-30.050771,-51.228621,fr_ips@mmartan.com.br
Mmartan,Shopping Tambore,"Avenida Piracema, 669, Loja 150, Térreo",Tamboré,06460030,,(11) 995748880,SP,Barueri,,,"[<Selector xpath=""descendant-or-self::div[@class and contains(concat(' ', normalize-space(@class), ' '), ' x21smb-0 ') and (@class and contains(concat(' ', normalize-space(@class), ' '), ' eaLBM '))]/p/span/text()"" data='Ammo Varejo Ltda CNPJ: 03.494.776/001...'>]",Artigos Diversos,,,,-23.504149,-46.833527,fr_stb@mmartan.com.br
Mmartan,Shopping Campo Grande,"Avenida Afonso Pena, 4909, Loja 1910, 1º Piso",Santa Fé,79031010,,(67) 91220118,MS,Campo Grande,,,"[<Selector xpath=""descendant-or-self::div[@class and contains(concat(' ', normalize-space(@class), ' '), ' x21smb-0 ') and (@class and contains(concat(' ', normalize-space(@class), ' '), ' eaLBM '))]/p/span/text()"" data='Ammo Varejo Ltda CNPJ: 03.494.776/001...'>]",Artigos Diversos,,,,-20.458901,-54.587825,fr_campogrande@mmartan.com.br
Mmartan,Teresina,"Avenida Homero Castelo Branco, 2005, Lojas 03/04",São Cristóvão,64052005,,(86) 999434310,PI,Teresina,,,"[<Selector xpath=""descendant-or-self::div[@class and contains(concat(' ', normalize-space(@class), ' '), ' x21smb-0 ') and (@class and contains(concat(' ', normalize-space(@class), ' '), ' eaLBM '))]/p/span/text()"" data='Ammo Varejo Ltda CNPJ: 03.494.776/001...'>]",Artigos Diversos,,,,-5.073683,-42.782068,fr_teresina@mmartan.com.br
Mmartan,Pouso Alegre,"Av. Porfirio Ribeiro De Andrade, 315",Fatima,37550000,,(35) 998809097,MG,Pouso Alegre,,,"[<Selector xpath=""descendant-or-self::div[@class and contains(concat(' ', normalize-space(@class), ' '), ' x21smb-0 ') and (@class and contains(concat(' ', normalize-space(@class), ' '), ' eaLBM '))]/p/span/text()"" data='Ammo Varejo Ltda CNPJ: 03.494.776/001...'>]",Artigos Diversos,,,,-22.223152,-45.921329,fr_pousoalegre@mmartan.com.br
Mmartan,Ribeirão Shopping,"Avenida Coronel Fernando Ferreira Leite 1540, 1540,  Loja 168, 1º Piso",Jardim Califórnia,14026900,,(16) 992034633,SP,Ribeirão Preto,,,"[<Selector xpath=""descendant-or-self::div[@class and contains(concat(' ', normalize-space(@class), ' '), ' x21smb-0 ') and (@class and contains(concat(' ', normalize-space(@class), ' '), ' eaLBM '))]/p/span/text()"" data='Ammo Varejo Ltda CNPJ: 03.494.776/001...'>]",Artigos Diversos,,,,-21.212251,-47.814253,fr_ribeiraoshop@mmartan.com.br
Mmartan,Franca,"Avenida Doutor Ismael Alonso Y. Alonso, 879",Centro,14400770,,(16) 991555038,SP,Franca,,,"[<Selector xpath=""descendant-or-self::div[@class and contains(concat(' ', normalize-space(@class), ' '), ' x21smb-0 ') and (@class and contains(concat(' ', normalize-space(@class), ' '), ' eaLBM '))]/p/span/text()"" data='Ammo Varejo Ltda CNPJ: 03.494.776/001...'>]",Artigos Diversos,,,,-20.547274,-47.400734,fr_franca@mmartan.com.br
Mmartan,Rondon Plaza Shopping,"Avenida Rotary Internacional, 1950, Lojas 307/308, Térreo",Parque Sagrada Família,78735219,,(66) 99312212,MT,Rondonópolis,,,"[<Selector xpath=""descendant-or-self::div[@class and contains(concat(' ', normalize-space(@class), ' '), ' x21smb-0 ') and (@class and contains(concat(' ', normalize-space(@class), ' '), ' eaLBM '))]/p/span/text()"" data='Ammo Varejo Ltda CNPJ: 03.494.776/001...'>]",Artigos Diversos,,,,-16.472973,-54.608809,fr_rondonopolis@mmartan.com.br
Mmartan,Iguatemi Brasilia,"Quadra CA 4,  Lote A,  Bloco A, Loja 41, Térreo",Setor de Habitações Individuais Norte,71503504,,(61) 983800043,DF,Brasília,,,"[<Selector xpath=""descendant-or-self::div[@class and contains(concat(' ', normalize-space(@class), ' '), ' x21smb-0 ') and (@class and contains(concat(' ', normalize-space(@class), ' '), ' eaLBM '))]/p/span/text()"" data='Ammo Varejo Ltda CNPJ: 03.494.776/001...'>]",Artigos Diversos,,,,-15.720031,-47.88645,fr_iguatemibr@mmartan.com.br
Mmartan,Indaiatuba,"Avenida Presidente Kennedy, 1142",Cidade Nova,13334170,,(19) 998400898,SP,Indaiatuba,,,"[<Selector xpath=""descendant-or-self::div[@class and contains(concat(' ', normalize-space(@class), ' '), ' x21smb-0 ') and (@class and contains(concat(' ', normalize-space(@class), ' '), ' eaLBM '))]/p/span/text()"" data='Ammo Varejo Ltda CNPJ: 03.494.776/001...'>]",Artigos Diversos,,,,-23.083371,-47.203729,fr_indaiatuba@mmartan.com.br
Mmartan,Riomar Fortaleza,"Rua Desembargador Lauro Nogueira, 1500,  Loja 1160, 1º Piso",Papicu,60176065,,(85) 32653521,CE,Fortaleza,,,"[<Selector xpath=""descendant-or-self::div[@class and contains(concat(' ', normalize-space(@class), ' '), ' x21smb-0 ') and (@class and contains(concat(' ', normalize-space(@class), ' '), ' eaLBM '))]/p/span/text()"" data='Ammo Varejo Ltda CNPJ: 03.494.776/001...'>]",Artigos Diversos,,,,-3.741939,-38.472054,fr_riomarfortaleza@mmartan.com.br
Mmartan,Rio Design Barra,"Avenida das Américas, 7777,  Lojas 227/228, 2º Piso",Barra da Tijuca,22793081,,(21) 989151343,RJ,Rio de Janeiro,,,"[<Selector xpath=""descendant-or-self::div[@class and contains(concat(' ', normalize-space(@class), ' '), ' x21smb-0 ') and (@class and contains(concat(' ', normalize-space(@class), ' '), ' eaLBM '))]/p/span/text()"" data='Ammo Varejo Ltda CNPJ: 03.494.776/001...'>]",Artigos Diversos,,,,-23.000852,-43.385559,fr_riodesign@mmartan.com.br
Mmartan,Riomar Recife,"Avenida República do Líbano 251, 236,  Loja 2137, 2º Piso",Pina,51110900,,(85) 97712004,PE,Recife,,,"[<Selector xpath=""descendant-or-self::div[@class and contains(concat(' ', normalize-space(@class), ' '), ' x21smb-0 ') and (@class and contains(concat(' ', normalize-space(@class), ' '), ' eaLBM '))]/p/span/text()"" data='Ammo Varejo Ltda CNPJ: 03.494.776/001...'>]",Artigos Diversos,,,,-8.085587,-34.894897,fr_riomar@mmartan.com.br
Mmartan,Catuaí Shopping Maringá,"Avenida Colombo,  9161, Loja 213, Lote 1/1",Gleba Patrimônio Maringá,87070000,,(19) 991297170,PR,Maringá,,,"[<Selector xpath=""descendant-or-self::div[@class and contains(concat(' ', normalize-space(@class), ' '), ' x21smb-0 ') and (@class and contains(concat(' ', normalize-space(@class), ' '), ' eaLBM '))]/p/span/text()"" data='Ammo Varejo Ltda CNPJ: 03.494.776/001...'>]",Artigos Diversos,,,,-23.420018,-51.970329,catuaimaringa@mmartan.com.br
Mmartan,Pantanal Shopping Cuiaba,"Avenida Historiador Rubens de Mendonça, 3300, Lojas 2147/2148, Térreo",Bosque da Saúde,78050000,,(65) 984368002,MT,Cuiabá,,,"[<Selector xpath=""descendant-or-self::div[@class and contains(concat(' ', normalize-space(@class), ' '), ' x21smb-0 ') and (@class and contains(concat(' ', normalize-space(@class), ' '), ' eaLBM '))]/p/span/text()"" data='Ammo Varejo Ltda CNPJ: 03.494.776/001...'>]",Artigos Diversos,,,,-15.575735,-56.071781,fr_cuiaba@mmartan.com.br
Mmartan,Friburgo Shopping Center,"Praça Presidente Getúlio Vargas, 139,  Lojas 147/148, Térreo",Centro,28610175,,(22) 988293001,RJ,Nova Friburgo,,,"[<Selector xpath=""descendant-or-self::div[@class and contains(concat(' ', normalize-space(@class), ' '), ' x21smb-0 ') and (@class and contains(concat(' ', normalize-space(@class), ' '), ' eaLBM '))]/p/span/text()"" data='Ammo Varejo Ltda CNPJ: 03.494.776/001...'>]",Artigos Diversos,,,,-22.280231,-42.533251,fr_novafriburgo@mmartan.com.br
Mmartan,Porto Velho,"Avenida Carlos Gomes, 2242",São Cristóvão,76804038,,(69) 992153858,RO,Porto Velho,,,"[<Selector xpath=""descendant-or-self::div[@class and contains(concat(' ', normalize-space(@class), ' '), ' x21smb-0 ') and (@class and contains(concat(' ', normalize-space(@class), ' '), ' eaLBM '))]/p/span/text()"" data='Ammo Varejo Ltda CNPJ: 03.494.776/001...'>]",Artigos Diversos,,,,-8.759063,-63.892242,fr_portovelho@mmartan.com.br
Mmartan,Caruaru,"Avenida Agamenon Magalhães, 885A, Quadra 54, Lote 96",Maurício de Nassau,55014000,,(81) 997064881,PE,Caruaru,,,"[<Selector xpath=""descendant-or-self::div[@class and contains(concat(' ', normalize-space(@class), ' '), ' x21smb-0 ') and (@class and contains(concat(' ', normalize-space(@class), ' '), ' eaLBM '))]/p/span/text()"" data='Ammo Varejo Ltda CNPJ: 03.494.776/001...'>]",Artigos Diversos,,,,-8.274661,-35.973902,fr_caruaru@mmartan.com.br
Mmartan,Sete Lagoas,"Avenida Otávio Campelo Ribeiro, 2801, Loja 275",Eldorado,35702153,,(31) 988660093,MG,Sete Lagoas,,,"[<Selector xpath=""descendant-or-self::div[@class and contains(concat(' ', normalize-space(@class), ' '), ' x21smb-0 ') and (@class and contains(concat(' ', normalize-space(@class), ' '), ' eaLBM '))]/p/span/text()"" data='Ammo Varejo Ltda CNPJ: 03.494.776/001...'>]",Artigos Diversos,,,,-19.472853,-44.271984,fr_setelagoas@mmartan.com.br
Mmartan,Shopping Patio Marabá,"Quadra Quinze, S/N, LOTE 10 ANDAR 3 LOJA 327 SHOP. PATIO",Nova Marabá,68507445,,,PA,Marabá,,,"[<Selector xpath=""descendant-or-self::div[@class and contains(concat(' ', normalize-space(@class), ' '), ' x21smb-0 ') and (@class and contains(concat(' ', normalize-space(@class), ' '), ' eaLBM '))]/p/span/text()"" data='Ammo Varejo Ltda CNPJ: 03.494.776/001...'>]",Artigos Diversos,,,,-5.341449,-49.144935,fr_mba@mmartan.com.br
Mmartan,Bauru Shopping,"Rua Henrique Savi 55 Quadra 15, 15/55,  Lojas AM 82/83, 1º Piso",Vila Cidade Universitária,17011900,,(14) 996518725,SP,Bauru,,,"[<Selector xpath=""descendant-or-self::div[@class and contains(concat(' ', normalize-space(@class), ' '), ' x21smb-0 ') and (@class and contains(concat(' ', normalize-space(@class), ' '), ' eaLBM '))]/p/span/text()"" data='Ammo Varejo Ltda CNPJ: 03.494.776/001...'>]",Artigos Diversos,,,,-22.342441,-49.050003,fr_bauru@mmartan.com.br
Mmartan,Parque Shopping Maia,"Avenida Bartholomeu de Carlos, 230,  Loja 3023/3024,  3º Piso",Jardim Flor da Montanha,07097420,,(11) 988391797,SP,Guarulhos,,,"[<Selector xpath=""descendant-or-self::div[@class and contains(concat(' ', normalize-space(@class), ' '), ' x21smb-0 ') and (@class and contains(concat(' ', normalize-space(@class), ' '), ' eaLBM '))]/p/span/text()"" data='Ammo Varejo Ltda CNPJ: 03.494.776/001...'>]",Artigos Diversos,,,,-23.443497,-46.540087,fr_parquemaia@mmartan.com.br
Mmartan,Itatiba,"Rua Rui Barbosa, 220,  Loja 08",Centro,13250280,,(11) 943090884,SP,Itatiba,,,"[<Selector xpath=""descendant-or-self::div[@class and contains(concat(' ', normalize-space(@class), ' '), ' x21smb-0 ') and (@class and contains(concat(' ', normalize-space(@class), ' '), ' eaLBM '))]/p/span/text()"" data='Ammo Varejo Ltda CNPJ: 03.494.776/001...'>]",Artigos Diversos,,,,-23.003955,-46.843147,fr_itatiba@mmartan.com.br
Mmartan,Campina Grande,"Rua Irineu Joffily, 131",Centro,58400270,,(83) 981963506,PB,Campina Grande,,,"[<Selector xpath=""descendant-or-self::div[@class and contains(concat(' ', normalize-space(@class), ' '), ' x21smb-0 ') and (@class and contains(concat(' ', normalize-space(@class), ' '), ' eaLBM '))]/p/span/text()"" data='Ammo Varejo Ltda CNPJ: 03.494.776/001...'>]",Artigos Diversos,,,,-7.221059,-35.884443,fr_campinagrande@mmartan.com.br
Mmartan,Palladium Shopping,"Avenida Presidente Kennedy 4121, 4121, LOJA 2008 ANDAR L2",Portão,80610905,,(41) 98722565,PR,Curitiba,,,"[<Selector xpath=""descendant-or-self::div[@class and contains(concat(' ', normalize-space(@class), ' '), ' x21smb-0 ') and (@class and contains(concat(' ', normalize-space(@class), ' '), ' eaLBM '))]/p/span/text()"" data='Ammo Varejo Ltda CNPJ: 03.494.776/001...'>]",Artigos Diversos,,,,-25.477459,-49.291714,fr_spl@mmartan.com.br
Mmartan,Shopping Anália Franco,"Avenida Regente Feijó, 1739,  Lojas OQ 99/100, 2º Piso",Vila Regente Feijó,03342000,,(11) 946155520,SP,São Paulo,,,"[<Selector xpath=""descendant-or-self::div[@class and contains(concat(' ', normalize-space(@class), ' '), ' x21smb-0 ') and (@class and contains(concat(' ', normalize-space(@class), ' '), ' eaLBM '))]/p/span/text()"" data='Ammo Varejo Ltda CNPJ: 03.494.776/001...'>]",Artigos Diversos,,,,-23.561861,-46.561654,fr_analiafranco@mmartan.com.br
Mmartan,Ponta Grossa,"Avenida Bonifácio Vilela, 294",Centro,84010330,,(42) 99661172,PR,Ponta Grossa,,,"[<Selector xpath=""descendant-or-self::div[@class and contains(concat(' ', normalize-space(@class), ' '), ' x21smb-0 ') and (@class and contains(concat(' ', normalize-space(@class), ' '), ' eaLBM '))]/p/span/text()"" data='Ammo Varejo Ltda CNPJ: 03.494.776/001...'>]",Artigos Diversos,,,,-25.090254,-50.159572,fr_pontagrossa@mmartan.com.br
Mmartan,Iguatemi Ribeirão Preto,"Avenida Luiz Eduardo Toledo Prado, 900,  Loja 2020, Piso Superior",Vila do Golf,14027250,,(16) 39022190,SP,Ribeirão Preto,,,"[<Selector xpath=""descendant-or-self::div[@class and contains(concat(' ', normalize-space(@class), ' '), ' x21smb-0 ') and (@class and contains(concat(' ', normalize-space(@class), ' '), ' eaLBM '))]/p/span/text()"" data='Ammo Varejo Ltda CNPJ: 03.494.776/001...'>]",Artigos Diversos,,,,-21.22596,-47.83362,fr_ribeiraopreto@mmartan.com.br
Mmartan,Center Shopping Uberlândia,"Avenida João Naves de Ávila, 1331,  Loja 1318, 1º Piso",Saraiva,38408100,,(34) 999673625,MG,Uberlândia,,,"[<Selector xpath=""descendant-or-self::div[@class and contains(concat(' ', normalize-space(@class), ' '), ' x21smb-0 ') and (@class and contains(concat(' ', normalize-space(@class), ' '), ' eaLBM '))]/p/span/text()"" data='Ammo Varejo Ltda CNPJ: 03.494.776/001...'>]",Artigos Diversos,,,,-18.909707,-48.261391,fr_uberlandia@mmartan.com.br
Mmartan,Nações Shopping,"Avenida Jorge Elias de Lucca, 677,  Sala L 21, Térreo",Nossa Senhora da Salete,88813390,,(48) 988420089,SC,Criciúma,,,"[<Selector xpath=""descendant-or-self::div[@class and contains(concat(' ', normalize-space(@class), ' '), ' x21smb-0 ') and (@class and contains(concat(' ', normalize-space(@class), ' '), ' eaLBM '))]/p/span/text()"" data='Ammo Varejo Ltda CNPJ: 03.494.776/001...'>]",Artigos Diversos,,,,-28.68713,-49.333695,fr_criciuma@mmartan.com.br
Mmartan,Iguatemi Florianópolis,"Avenida Madre Benvenuta, 687, Loja 334",Santa Mônica,88035000,,(48) 96313456,SC,Florianópolis,,,"[<Selector xpath=""descendant-or-self::div[@class and contains(concat(' ', normalize-space(@class), ' '), ' x21smb-0 ') and (@class and contains(concat(' ', normalize-space(@class), ' '), ' eaLBM '))]/p/span/text()"" data='Ammo Varejo Ltda CNPJ: 03.494.776/001...'>]",Artigos Diversos,,,,-27.591231,-48.514791,fr_iguatemifloripa@mmartan.com.br
Mmartan,Rio Verde,"Rua Major Oscar Campos, 520",Setor Central,75901285,,(64) 999477748,GO,Rio Verde,,,"[<Selector xpath=""descendant-or-self::div[@class and contains(concat(' ', normalize-space(@class), ' '), ' x21smb-0 ') and (@class and contains(concat(' ', normalize-space(@class), ' '), ' eaLBM '))]/p/span/text()"" data='Ammo Varejo Ltda CNPJ: 03.494.776/001...'>]",Artigos Diversos,,,,-17.797649,-50.930306,fr_rioverde@mmartan.com.br
Mmartan,Araguaina,"Rua José de Brito Soares, 744,  Sala 01",Setor Anhangüera,77818530,,(63) 992476280,TO,Araguaína,,,"[<Selector xpath=""descendant-or-self::div[@class and contains(concat(' ', normalize-space(@class), ' '), ' x21smb-0 ') and (@class and contains(concat(' ', normalize-space(@class), ' '), ' eaLBM '))]/p/span/text()"" data='Ammo Varejo Ltda CNPJ: 03.494.776/001...'>]",Artigos Diversos,,,,-7.192992,-48.219324,fr_araguaina@mmartan.com.br
Mmartan,Pátio Batel,"Avenida do Batel, 1868, LOJA 319 ANDAR L-3",Batel,80420090,,(41) 997099935,PR,Curitiba,,,"[<Selector xpath=""descendant-or-self::div[@class and contains(concat(' ', normalize-space(@class), ' '), ' x21smb-0 ') and (@class and contains(concat(' ', normalize-space(@class), ' '), ' eaLBM '))]/p/span/text()"" data='Ammo Varejo Ltda CNPJ: 03.494.776/001...'>]",Artigos Diversos,,,,-25.443041,-49.290821,fr_pbt@mmartan.com.br
Mmartan,Manauara Shopping,"Avenida Jornalista Umberto Calderaro Filho, 1300,  Loja 257, 2º Piso",Adrianópolis,69057015,,(92) 988551021,AM,Manaus,,,"[<Selector xpath=""descendant-or-self::div[@class and contains(concat(' ', normalize-space(@class), ' '), ' x21smb-0 ') and (@class and contains(concat(' ', normalize-space(@class), ' '), ' eaLBM '))]/p/span/text()"" data='Ammo Varejo Ltda CNPJ: 03.494.776/001...'>]",Artigos Diversos,,,,-3.104008,-60.01158,fr_manauara@mmartan.com.br
Mmartan,Shopping Jardins Aracaju,"Avenida Ministro Geraldo Barreto Sobral, 215, LOJA E-40",Jardins,49026010,,(79) 98133911,SE,Aracaju,,,"[<Selector xpath=""descendant-or-self::div[@class and contains(concat(' ', normalize-space(@class), ' '), ' x21smb-0 ') and (@class and contains(concat(' ', normalize-space(@class), ' '), ' eaLBM '))]/p/span/text()"" data='Ammo Varejo Ltda CNPJ: 03.494.776/001...'>]",Artigos Diversos,,,,-10.943267,-37.062012,fr_sja@mmartan.com.br
Mmartan,Barreiras,"Rua Capitão Manoel Miranda, 706, Loja 4",Renato Gonçalves,47806086,,(77) 998087626,BA,Barreiras,,,"[<Selector xpath=""descendant-or-self::div[@class and contains(concat(' ', normalize-space(@class), ' '), ' x21smb-0 ') and (@class and contains(concat(' ', normalize-space(@class), ' '), ' eaLBM '))]/p/span/text()"" data='Ammo Varejo Ltda CNPJ: 03.494.776/001...'>]",Artigos Diversos,,,,-12.150988,-44.996183,fr_barreiras@mmartan.com.br
Mmartan,Salvador Shopping,"Avenida Tancredo Neves, 3133, Loja 1146, 1º Piso",Caminho das Árvores,41820021,,(71) 93780026,BA,Salvador,,,"[<Selector xpath=""descendant-or-self::div[@class and contains(concat(' ', normalize-space(@class), ' '), ' x21smb-0 ') and (@class and contains(concat(' ', normalize-space(@class), ' '), ' eaLBM '))]/p/span/text()"" data='Ammo Varejo Ltda CNPJ: 03.494.776/001...'>]",Artigos Diversos,,,,-12.977564,-38.454886,fr_salvadorshop@mmartan.com.br
Mmartan,Montes Claros Shopping Center,"Avenida Donato Quintino, 90,  Loja E 134/135/136, 2º Piso",Cidade Nova,39400546,,(38) 988373695,MG,Montes Claros,,,"[<Selector xpath=""descendant-or-self::div[@class and contains(concat(' ', normalize-space(@class), ' '), ' x21smb-0 ') and (@class and contains(concat(' ', normalize-space(@class), ' '), ' eaLBM '))]/p/span/text()"" data='Ammo Varejo Ltda CNPJ: 03.494.776/001...'>]",Artigos Diversos,,,,-16.741494,-43.869815,fr_montesclaros@mmartan.com.br
Mmartan,Farol Shopping,"Avenida Marcolino Martins Cabral, 2525,  Loja R2, Térreo",Aeroporto,88705003,,(11) 962398390,SC,Tubarão,,,"[<Selector xpath=""descendant-or-self::div[@class and contains(concat(' ', normalize-space(@class), ' '), ' x21smb-0 ') and (@class and contains(concat(' ', normalize-space(@class), ' '), ' eaLBM '))]/p/span/text()"" data='Ammo Varejo Ltda CNPJ: 03.494.776/001...'>]",Artigos Diversos,,,,-28.475314,-48.995143,fr_tubarao@mmartan.com.br
Mmartan,Iguatemi Campinas,"Avenida Iguatemi 777, 777,  Loja 04, 2º Piso",Vila Brandina,13092902,,(19) 994717907,SP,Campinas,,,"[<Selector xpath=""descendant-or-self::div[@class and contains(concat(' ', normalize-space(@class), ' '), ' x21smb-0 ') and (@class and contains(concat(' ', normalize-space(@class), ' '), ' eaLBM '))]/p/span/text()"" data='Ammo Varejo Ltda CNPJ: 03.494.776/001...'>]",Artigos Diversos,,,,-22.893274,-47.026961,fr_icampinas@mmartan.com.br
Mmartan,Iguatemi Caxias do Sul,"Rodovia RSC-453 2780 Quilômetro 3,5, 2780 - KM 3,5, Lojas 314/315 Q, 1º Piso",Cidade Nova,95110900,,(54) 996604642,RS,Caxias do Sul,,,"[<Selector xpath=""descendant-or-self::div[@class and contains(concat(' ', normalize-space(@class), ' '), ' x21smb-0 ') and (@class and contains(concat(' ', normalize-space(@class), ' '), ' eaLBM '))]/p/span/text()"" data='Ammo Varejo Ltda CNPJ: 03.494.776/001...'>]",Artigos Diversos,,,,-29.176531,-51.219593,fr_caxiasdosul@mmartan.com.br
Mmartan,Ponteio Lar Shopping,"Rodovia BR-356 2500, 2500,  Loja 118/119, Térreo",Santa Lúcia,30320901,,(31) 987712097,MG,Belo Horizonte,,,"[<Selector xpath=""descendant-or-self::div[@class and contains(concat(' ', normalize-space(@class), ' '), ' x21smb-0 ') and (@class and contains(concat(' ', normalize-space(@class), ' '), ' eaLBM '))]/p/span/text()"" data='Ammo Varejo Ltda CNPJ: 03.494.776/001...'>]",Artigos Diversos,,,,-19.963447,-43.940009,fr_ponteio@mmartan.com.br
Mmartan,Atibaia,"Rua Voluntários de 1932, 380,  Loja 05",Centro,12940740,,(11) 942770884,SP,Atibaia,,,"[<Selector xpath=""descendant-or-self::div[@class and contains(concat(' ', normalize-space(@class), ' '), ' x21smb-0 ') and (@class and contains(concat(' ', normalize-space(@class), ' '), ' eaLBM '))]/p/span/text()"" data='Ammo Varejo Ltda CNPJ: 03.494.776/001...'>]",Artigos Diversos,,,,-23.12021,-46.555027,fr_atibaia@mmartan.com.br
Mmartan,Independência Shopping,"Avenida Presidente Itamar Franco, 3600, Loja 216",Cascatinha,36033318,,(32) 988466840,MG,Juiz de Fora,,,"[<Selector xpath=""descendant-or-self::div[@class and contains(concat(' ', normalize-space(@class), ' '), ' x21smb-0 ') and (@class and contains(concat(' ', normalize-space(@class), ' '), ' eaLBM '))]/p/span/text()"" data='Ammo Varejo Ltda CNPJ: 03.494.776/001...'>]",Artigos Diversos,,,,-21.780947,-43.362572,fr_isn@mmartan.com.br
Mmartan,Center Vale Shopping,"Avenida Deputado Benedito Matarazzo 9403,  9403, Loja S207, 1º Piso",Jardim Paulista,12215900,,(12) 982321117,SP,São José dos Campos,,,"[<Selector xpath=""descendant-or-self::div[@class and contains(concat(' ', normalize-space(@class), ' '), ' x21smb-0 ') and (@class and contains(concat(' ', normalize-space(@class), ' '), ' eaLBM '))]/p/span/text()"" data='Ammo Varejo Ltda CNPJ: 03.494.776/001...'>]",Artigos Diversos,,,,-23.200579,-45.88024,fr_centervale@mmartan.com.br
Mmartan,Passeio das Águas Shopping,"Avenida Perimetral Norte,  8303, Loja 31, Térreo",Fazenda Caveiras,74445360,,(62) 82171819,GO,Goiânia,,,"[<Selector xpath=""descendant-or-self::div[@class and contains(concat(' ', normalize-space(@class), ' '), ' x21smb-0 ') and (@class and contains(concat(' ', normalize-space(@class), ' '), ' eaLBM '))]/p/span/text()"" data='Ammo Varejo Ltda CNPJ: 03.494.776/001...'>]",Artigos Diversos,,,,-16.62935,-49.27732,fr_passeiodasaguas@mmartan.com.br
Mmartan,Shopping São Caetano,"Alameda Terracota, 545, Loja Luc 1037",Cerâmica,09531190,,(11) 911414144,SP,São Caetano do Sul,,,"[<Selector xpath=""descendant-or-self::div[@class and contains(concat(' ', normalize-space(@class), ' '), ' x21smb-0 ') and (@class and contains(concat(' ', normalize-space(@class), ' '), ' eaLBM '))]/p/span/text()"" data='Ammo Varejo Ltda CNPJ: 03.494.776/001...'>]",Artigos Diversos,,,,-23.626662,-46.582467,fr_pss@mmartan.com.br
Mmartan,Manaira Shopping,"Avenida Governador Flávio Ribeiro Coutinho, 220,  Loja S411, 1º Piso",Parque Verde,58102835,,(83) 981663506,PB,Cabedelo,,,"[<Selector xpath=""descendant-or-self::div[@class and contains(concat(' ', normalize-space(@class), ' '), ' x21smb-0 ') and (@class and contains(concat(' ', normalize-space(@class), ' '), ' eaLBM '))]/p/span/text()"" data='Ammo Varejo Ltda CNPJ: 03.494.776/001...'>]",Artigos Diversos,,,,-7.098405,-34.845254,fr_joaopessoa@mmartan.com.br
Mmartan,Parque Dom Pedro Shopping,"Avenida Guilherme Campos 500, 500, LOJA L233 TERREOL233",Jardim Santa Genebra,13087901,,(19) 33657063,SP,Campinas,,,"[<Selector xpath=""descendant-or-self::div[@class and contains(concat(' ', normalize-space(@class), ' '), ' x21smb-0 ') and (@class and contains(concat(' ', normalize-space(@class), ' '), ' eaLBM '))]/p/span/text()"" data='Ammo Varejo Ltda CNPJ: 03.494.776/001...'>]",Artigos Diversos,,,,-22.847602,-47.062119,parquedompedro@mmartan.com.br
Mmartan,Imperial Shopping,"Rodovia BR-010, 100, SALA E0218/E0219",Jardim São Luís,65913015,,(99) 988020168,MA,Imperatriz,,,"[<Selector xpath=""descendant-or-self::div[@class and contains(concat(' ', normalize-space(@class), ' '), ' x21smb-0 ') and (@class and contains(concat(' ', normalize-space(@class), ' '), ' eaLBM '))]/p/span/text()"" data='Ammo Varejo Ltda CNPJ: 03.494.776/001...'>]",Artigos Diversos,,,,-5.529376,-47.470196,fr_isp@mmartan.com.br
Mmartan,Poços de Caldas,"Rua Barros Cobra, 16",Centro,37701018,,3537210002,MG,Poços de Caldas,,,"[<Selector xpath=""descendant-or-self::div[@class and contains(concat(' ', normalize-space(@class), ' '), ' x21smb-0 ') and (@class and contains(concat(' ', normalize-space(@class), ' '), ' eaLBM '))]/p/span/text()"" data='Ammo Varejo Ltda CNPJ: 03.494.776/001...'>]",Artigos Diversos,,,,-21.789499,-46.566117,fr_pcaldas@mmartan.com.br
Mmartan,Dourados,"Avenida Weimar Gonçalves Torres, 2065, Sala 2",Centro,79800011,,(67) 98553362,MS,Dourados,,,"[<Selector xpath=""descendant-or-self::div[@class and contains(concat(' ', normalize-space(@class), ' '), ' x21smb-0 ') and (@class and contains(concat(' ', normalize-space(@class), ' '), ' eaLBM '))]/p/span/text()"" data='Ammo Varejo Ltda CNPJ: 03.494.776/001...'>]",Artigos Diversos,,,,-22.226373,-54.810107,fr_dourados@mmartan.com.br
Mmartan,Shopping Pelotas,"Avenida Ferreira Viana, 1526,  Lojas 022/023, Térreo",Areal,96085000,,(53) 981132626,RS,Pelotas,,,"[<Selector xpath=""descendant-or-self::div[@class and contains(concat(' ', normalize-space(@class), ' '), ' x21smb-0 ') and (@class and contains(concat(' ', normalize-space(@class), ' '), ' eaLBM '))]/p/span/text()"" data='Ammo Varejo Ltda CNPJ: 03.494.776/001...'>]",Artigos Diversos,,,,-31.761511,-52.318551,fr_pelotas@mmartan.com.br
Mmartan,Jardim dos Estados,"Rua Euclides da Cunha, 1103, Sala 01/02",Jardim dos Estados,79020230,,(67) 91133322,MS,Campo Grande,,,"[<Selector xpath=""descendant-or-self::div[@class and contains(concat(' ', normalize-space(@class), ' '), ' x21smb-0 ') and (@class and contains(concat(' ', normalize-space(@class), ' '), ' eaLBM '))]/p/span/text()"" data='Ammo Varejo Ltda CNPJ: 03.494.776/001...'>]",Artigos Diversos,,,,-20.45581,-54.594391,fr_jardimdosestados@mmartan.com.br
Mmartan,Shopping Conjunto Nacional,"SDN Lote Único,  Conjunto A,  Loja T-56, Térreo",Asa Norte,70077900,,(61) 983800057,DF,Brasília,,,"[<Selector xpath=""descendant-or-self::div[@class and contains(concat(' ', normalize-space(@class), ' '), ' x21smb-0 ') and (@class and contains(concat(' ', normalize-space(@class), ' '), ' eaLBM '))]/p/span/text()"" data='Ammo Varejo Ltda CNPJ: 03.494.776/001...'>]",Artigos Diversos,,,,-15.791787,-47.883745,fr_conjuntonacional@mmartan.com.br
Mmartan,Mogi Shopping,"Avenida Vereador Narciso Yague Guimarães, 1001, Lojas 232/233",Centro Cívico,08780000,,(11) 933174463,SP,Mogi das Cruzes,,,"[<Selector xpath=""descendant-or-self::div[@class and contains(concat(' ', normalize-space(@class), ' '), ' x21smb-0 ') and (@class and contains(concat(' ', normalize-space(@class), ' '), ' eaLBM '))]/p/span/text()"" data='Ammo Varejo Ltda CNPJ: 03.494.776/001...'>]",Artigos Diversos,,,,-23.516306,-46.180701,fr_mogidascruzes@mmartan.com.br
Mmartan,Brasil Park Shopping Anapolis,"Avenida Brasil, 505,  Loja UC15, 2º Piso",Cidade Jardim,75080240,,(62) 83121918,GO,Anápolis,,,"[<Selector xpath=""descendant-or-self::div[@class and contains(concat(' ', normalize-space(@class), ' '), ' x21smb-0 ') and (@class and contains(concat(' ', normalize-space(@class), ' '), ' eaLBM '))]/p/span/text()"" data='Ammo Varejo Ltda CNPJ: 03.494.776/001...'>]",Artigos Diversos,,,,-16.324271,-48.948215,fr_anapolis@mmartan.com.br
Mmartan,Shopping Tijuca,"Avenida Maracanã, 987,  Bloco 4, Lojas 40/41, Sub solo",Tijuca,20511000,,2125676652,RJ,Rio de Janeiro,,,"[<Selector xpath=""descendant-or-self::div[@class and contains(concat(' ', normalize-space(@class), ' '), ' x21smb-0 ') and (@class and contains(concat(' ', normalize-space(@class), ' '), ' eaLBM '))]/p/span/text()"" data='Ammo Varejo Ltda CNPJ: 03.494.776/001...'>]",Artigos Diversos,,,,-22.921746,-43.235696,fr_tijuca@mmartan.com.br
Mmartan,Vitória da Conquista,"Avenida Olívia Flores, 686, A1",Candeias,45028610,,(77) 991029740,BA,Vitória da Conquista,,,"[<Selector xpath=""descendant-or-self::div[@class and contains(concat(' ', normalize-space(@class), ' '), ' x21smb-0 ') and (@class and contains(concat(' ', normalize-space(@class), ' '), ' eaLBM '))]/p/span/text()"" data='Ammo Varejo Ltda CNPJ: 03.494.776/001...'>]",Artigos Diversos,,,,-14.863617,-40.827297,fr_vitoriaconquista@mmartan.com.br
Mmartan,Goiania Shopping,"Avenida T 10 1300, 1300,  ESC 174, 1º Piso",Setor Bueno,74223900,,(62) 83121900,GO,Goiânia,,,"[<Selector xpath=""descendant-or-self::div[@class and contains(concat(' ', normalize-space(@class), ' '), ' x21smb-0 ') and (@class and contains(concat(' ', normalize-space(@class), ' '), ' eaLBM '))]/p/span/text()"" data='Ammo Varejo Ltda CNPJ: 03.494.776/001...'>]",Artigos Diversos,,,,-16.708182,-49.272093,fr_goiania@mmartan.com.br
Mmartan,Continente Park Shopping,"Rodovia BR-101,  KM 209 a 210 S/N,  Loja 73, 1º Piso",Picadas do Sul,88106101,,(49) 99003337,SC,São José,,,"[<Selector xpath=""descendant-or-self::div[@class and contains(concat(' ', normalize-space(@class), ' '), ' x21smb-0 ') and (@class and contains(concat(' ', normalize-space(@class), ' '), ' eaLBM '))]/p/span/text()"" data='Ammo Varejo Ltda CNPJ: 03.494.776/001...'>]",Artigos Diversos,,,,-27.614284,-48.645814,fr_continentepark@mmartan.com.br
